[
  {
    "lat": 8.707407619709493,
    "lng": 69.43142658528441,
    "url": "/login",
    "title": "Login or Register",
    "positionL": {
      "x": 0.8925067064318265,
      "y": 0.38906875016546233,
      "z": -2.3784358907943886
    },
    "positionM": {
      "x": 0.5452278323338396,
      "y": 0.23768013142403732,
      "z": -1.4529744546876227
    }
  },
  {
    "lat": 12.527393402605007,
    "lng": -104.35376721925991,
    "url": "/contact-us",
    "title": "Contact",
    "positionL": {
      "x": -0.6219557954554082,
      "y": 0.5574493484191567,
      "z": 2.430498140802927
    },
    "positionM": {
      "x": -0.37994964936380976,
      "y": 0.3405429871665666,
      "z": 1.4847790198679363
    }
  },
  {
    "lat": -17.927994515212426,
    "lng": -53.59844099578319,
    "url": "/schedule",
    "title": "Schedule",
    "positionL": {
      "x": 1.4510881669039812,
      "y": -0.7911013237581087,
      "z": 1.968095990397676
    },
    "positionM": {
      "x": 0.886462421026946,
      "y": -0.4832797970039809,
      "z": 1.2022998851845728
    }
  },
  {
    "lat": 29.031201180116845,
    "lng": 131.5679624438938,
    "url": "/profile",
    "title": "Profile",
    "positionL": {
      "x": -1.490964650815067,
      "y": 1.247184593771673,
      "z": -1.681206411800315
    },
    "positionM": {
      "x": -0.9108227633383874,
      "y": 0.7618987596192711,
      "z": -1.0270404928118657
    }
  },
  {
    "lat": 17.488062654107473,
    "lng": 41.50082296750401,
    "url": "/competitions",
    "title": "Events",
    "positionL": {
      "x": 1.8358270611452008,
      "y": 0.7723032209841889,
      "z": -1.6242495917882884
    },
    "positionM": {
      "x": 1.121497465368858,
      "y": 0.47179613110707264,
      "z": -0.9922458595749468
    }
  },
  {
    "lat": -27.781971610839932,
    "lng": 127.74853840358307,
    "url": "/rule-book",
    "title": "Rule Book",
    "positionL": {
      "x": -1.3919832656554711,
      "y": -1.1978982787037071,
      "z": -1.7978660411759892
    },
    "positionM": {
      "x": -0.8503555358284398,
      "y": -0.7317899990524592,
      "z": -1.0983072702903907
    }
  },
  {
    "lat": -32.96240669039982,
    "lng": 18.357933072399362,
    "url": "/dev-team",
    "title": "Dev Team",
    "positionL": {
      "x": 2.0465617437749413,
      "y": -1.3983078135173652,
      "z": -0.679132010417089
    },
    "positionM": {
      "x": 1.2502342170142635,
      "y": -0.8542191701253944,
      "z": -0.4148783098656925
    }
  }
]
