{
  "type": "FeatureCollection",
  "features": [
    {
      "type": "Feature",
      "properties": {
        "title": "Login or Register",
        "url": "/login",
        "Name": "India"
      },
      "geometry": {
        "coordinates": [74.50342658528442, 15.869407619709492],
        "type": "Point"
      }
    },
    {
      "type": "Feature",
      "properties": {
        "title": "Contact",
        "url": "/contact-us"
      },
      "geometry": {
        "coordinates": [-99.2817672192599, 19.689393402605006],
        "type": "Point"
      }
    },
    {
      "type": "Feature",
      "properties": {
        "title": "Schedule",
        "url": "/schedule"
      },
      "geometry": {
        "coordinates": [-48.52644099578319, -10.765994515212427],
        "type": "Point"
      }
    },
    {
      "type": "Feature",
      "properties": {
        "title": "Profile",
        "url": "/profile"
      },
      "geometry": {
        "coordinates": [136.6399624438938, 36.193201180116844],
        "type": "Point"
      }
    },
    {
      "type": "Feature",
      "properties": {
        "title": "Events",
        "url": "/events"
      },
      "geometry": {
        "coordinates": [46.57282296750401, 24.650062654107472],
        "type": "Point"
      },
      "id": 5
    },
    {
      "type": "Feature",
      "properties": {
        "title ": "Rule Book",
        "url": "/rulebook"
      },
      "geometry": {
        "coordinates": [132.82053840358307, -20.619971610839933],
        "type": "Point"
      },
      "id": 5
    },
    {
      "type": "Feature",
      "properties": {
        "title": "Dev Team",
        "url": "/dev-team"
      },
      "geometry": {
        "coordinates": [23.42993307239936, -25.800406690399814],
        "type": "Point"
      },
      "id": 6
    }
  ]
}
